{
  "rann_of_kutch": {
    "name": "Rann of Kutch",
    "category": "park",
    "tier": "tier1",
    "importance_score": 9,
    "city": "Kutch",
    "state": "Gujarat",
    "verified": true,
    "location": {
      "lat": 24.0454,
      "lng": 70.1456
    },
    "geohash": "ts3bu1q6wg",
    "nearby_spots": {
      "dwarka_temple": true
    }
  },
  "dwarka_temple": {
    "name": "Dwarkadhish Temple",
    "category": "religious",
    "tier": "tier1",
    "importance_score": 10,
    "city": "Dwarka",
    "state": "Gujarat",
    "verified": true,
    "location": {
      "lat": 22.2379,
      "lng": 68.9676
    },
    "geohash": "tecn92k9jt",
    "nearby_spots": {
      "rann_of_kutch": true
    }
  },
  "ajanta_caves": {
    "name": "Ajanta Caves",
    "category": "historic",
    "tier": "tier1",
    "importance_score": 10,
    "city": "Aurangabad",
    "state": "Maharashtra",
    "verified": true,
    "location": {
      "lat": 20.5524,
      "lng": 75.7004
    },
    "geohash": "tetuft7q7j",
    "nearby_spots": {
      "ellora_caves": true
    }
  },
  "ellora_caves": {
    "name": "Ellora Caves",
    "category": "historic",
    "tier": "tier1",
    "importance_score": 10,
    "city": "Aurangabad",
    "state": "Maharashtra",
    "verified": true,
    "location": {
      "lat": 20.0225,
      "lng": 75.1742
    },
    "geohash": "tet3ysuptb",
    "nearby_spots": {
      "ajanta_caves": true
    }
  },
  "mahabodhi_temple": {
    "name": "Mahabodhi Temple",
    "category": "religious",
    "tier": "tier1",
    "importance_score": 10,
    "city": "Bodh Gaya",
    "state": "Bihar",
    "verified": true,
    "location": {
      "lat": 24.696,
      "lng": 84.9914
    },
    "geohash": "tukkqpbbeh",
    "nearby_spots": {
      "nalanda_ruins": true
    }
  },
  "nalanda_ruins": {
    "name": "Nalanda University Ruins",
    "category": "historic",
    "tier": "tier1",
    "importance_score": 9,
    "city": "Nalanda",
    "state": "Bihar",
    "verified": true,
    "location": {
      "lat": 25.1357,
      "lng": 85.4432
    },
    "geohash": "tukybrcf4f",
    "nearby_spots": {
      "mahabodhi_temple": true
    }
  },
  "kaziranga": {
    "name": "Kaziranga National Park",
    "category": "park",
    "tier": "tier1",
    "importance_score": 9,
    "city": "Golaghat",
    "state": "Assam",
    "verified": true,
    "location": {
      "lat": 26.5775,
      "lng": 93.1711
    },
    "geohash": "whdr0nm15v",
    "nearby_spots": {
      "majuli_island": true
    }
  },
  "majuli_island": {
    "name": "Majuli Island",
    "category": "park",
    "tier": "tier1",
    "importance_score": 9,
    "city": "Majuli",
    "state": "Assam",
    "verified": true,
    "location": {
      "lat": 27.0016,
      "lng": 94.2243
    },
    "geohash": "whg185kp9r",
    "nearby_spots": {
      "kaziranga": true
    }
  },
  "meghalaya_living_root_bridge": {
    "name": "Living Root Bridges",
    "category": "park",
    "tier": "tier1",
    "importance_score": 9,
    "city": "Cherrapunji",
    "state": "Meghalaya",
    "verified": true,
    "location": {
      "lat": 25.2716,
      "lng": 91.7311
    },
    "geohash": "wh3pz2s99x",
    "nearby_spots": {
      "dawki_river": true
    }
  },
  "dawki_river": {
    "name": "Dawki River",
    "category": "park",
    "tier": "tier1",
    "importance_score": 9,
    "city": "Dawki",
    "state": "Meghalaya",
    "verified": true,
    "location": {
      "lat": 25.2011,
      "lng": 92.0226
    },
    "geohash": "wh3rq58z1c",
    "nearby_spots": {
      "meghalaya_living_root_bridge": true
    }
  },
  "andaman_radhanagar": {
    "name": "Radhanagar Beach",
    "category": "park",
    "tier": "tier1",
    "importance_score": 9,
    "city": "Havelock Island",
    "state": "Andaman and Nicobar Islands",
    "verified": true,
    "location": {
      "lat": 11.9845,
      "lng": 92.9876
    },
    "geohash": "w44h5vxwb0",
    "nearby_spots": {
      "cellular_jail": true
    }
  },
  "cellular_jail": {
    "name": "Cellular Jail",
    "category": "historic",
    "tier": "tier1",
    "importance_score": 10,
    "city": "Port Blair",
    "state": "Andaman and Nicobar Islands",
    "verified": true,
    "location": {
      "lat": 11.675,
      "lng": 92.748
    },
    "geohash": "w41fqt35c1",
    "nearby_spots": {
      "andaman_radhanagar": true
    }
  }
}