{
    "meenakshi_amman": {
        "name": "Meenakshi Amman Temple",
        "category": "religious",
        "tier": "tier1",
        "importance_score": 10,
        "city": "Madurai",
        "state": "Tamil Nadu",
        "verified": true,
        "location": {
            "lat": 9.9195,
            "lng": 78.1193
        },
        "geohash": "t9z83tu9",
        "nearby_spots": {
            "thirumalai_nayakkar": true,
            "koodal_azar": true
        }
    },
    "thirumalai_nayakkar": {
        "name": "Thirumalai Nayakkar Mahal",
        "category": "historic",
        "tier": "tier2",
        "importance_score": 8,
        "city": "Madurai",
        "state": "Tamil Nadu",
        "verified": true,
        "location": {
            "lat": 9.9149,
            "lng": 78.1235
        },
        "geohash": "t9z83szy",
        "nearby_spots": {
            "meenakshi_amman": true
        }
    },
    "shore_temple": {
        "name": "Shore Temple",
        "category": "historic",
        "tier": "tier1",
        "importance_score": 10,
        "city": "Mahabalipuram",
        "state": "Tamil Nadu",
        "verified": true,
        "location": {
            "lat": 12.6160,
            "lng": 80.1929
        },
        "geohash": "tf1pbbdt",
        "nearby_spots": {
            "five_rathas": true,
            "arjuna_penance": true
        }
    },
    "five_rathas": {
        "name": "Pancha Rathas",
        "category": "historic",
        "tier": "tier1",
        "importance_score": 9,
        "city": "Mahabalipuram",
        "state": "Tamil Nadu",
        "verified": true,
        "location": {
            "lat": 12.6091,
            "lng": 80.1921
        },
        "geohash": "tf1p8z6j",
        "nearby_spots": {
            "shore_temple": true,
            "arjuna_penance": true
        }
    },
    "brihadeeswarar": {
        "name": "Brihadeeswarar Temple",
        "category": "religious",
        "tier": "tier1",
        "importance_score": 10,
        "city": "Thanjavur",
        "state": "Tamil Nadu",
        "verified": true,
        "location": {
            "lat": 10.7828,
            "lng": 79.1318
        },
        "geohash": "tcbm2dyn",
        "nearby_spots": {
            "thanjavur_palace": true,
            "airavatesvara": true
        }
    },
    "airavatesvara": {
        "name": "Airavatesvara Temple",
        "category": "historic",
        "tier": "tier2",
        "importance_score": 9,
        "city": "Kumbakonam",
        "state": "Tamil Nadu",
        "verified": true,
        "location": {
            "lat": 10.9485,
            "lng": 79.3562
        },
        "geohash": "tcbqmc17",
        "nearby_spots": {
            "brihadeeswarar": true
        }
    },
    "vivekananda_rock": {
        "name": "Vivekananda Rock Memorial",
        "category": "monument",
        "tier": "tier1",
        "importance_score": 9,
        "city": "Kanyakumari",
        "state": "Tamil Nadu",
        "verified": true,
        "location": {
            "lat": 8.0781,
            "lng": 77.5553
        },
        "geohash": "t9rjuyd4",
        "nearby_spots": {
            "thiruvalluvar_statue": true
        }
    },
    "thiruvalluvar_statue": {
        "name": "Thiruvalluvar Statue",
        "category": "monument",
        "tier": "tier1",
        "importance_score": 9,
        "city": "Kanyakumari",
        "state": "Tamil Nadu",
        "verified": true,
        "location": {
            "lat": 8.0778,
            "lng": 77.5559
        },
        "geohash": "t9rjuyd2",
        "nearby_spots": {
            "vivekananda_rock": true
        }
    },
    "ramanathaswamy": {
        "name": "Ramanathaswamy Temple",
        "category": "religious",
        "tier": "tier1",
        "importance_score": 10,
        "city": "Rameswaram",
        "state": "Tamil Nadu",
        "verified": true,
        "location": {
            "lat": 9.2881,
            "lng": 79.3174
        },
        "geohash": "tc8kufv5",
        "nearby_spots": {
            "dhanushkodi": true
        }
    },
    "dhanushkodi": {
        "name": "Dhanushkodi Ghost Town",
        "category": "historic",
        "tier": "tier2",
        "importance_score": 9,
        "city": "Dhanushkodi",
        "state": "Tamil Nadu",
        "verified": true,
        "location": {
            "lat": 9.1800,
            "lng": 79.4430
        },
        "geohash": "tc8kpz0t",
        "nearby_spots": {
            "ramanathaswamy": true
        }
    },
    "ooty_botanical": {
        "name": "Government Botanical Garden",
        "category": "park",
        "tier": "tier1",
        "importance_score": 9,
        "city": "Ooty",
        "state": "Tamil Nadu",
        "verified": true,
        "location": {
            "lat": 11.4173,
            "lng": 76.7111
        },
        "geohash": "tdn8cw7q",
        "nearby_spots": {
            "ooty_lake": true,
            "doddabetta_peak": true
        }
    },
    "doddabetta_peak": {
        "name": "Doddabetta Peak",
        "category": "park",
        "tier": "tier1",
        "importance_score": 8,
        "city": "Ooty",
        "state": "Tamil Nadu",
        "verified": true,
        "location": {
            "lat": 11.4012,
            "lng": 76.7360
        },
        "geohash": "tdn8f5t2",
        "nearby_spots": {
            "ooty_botanical": true
        }
    },
    "kodai_lake": {
        "name": "Kodaikanal Lake",
        "category": "park",
        "tier": "tier1",
        "importance_score": 9,
        "city": "Kodaikanal",
        "state": "Tamil Nadu",
        "verified": true,
        "location": {
            "lat": 10.2323,
            "lng": 77.4891
        },
        "geohash": "t9z45q9z",
        "nearby_spots": {
            "bryant_park": true,
            "pillar_rocks": true
        }
    },
    "marina_beach": {
        "name": "Marina Beach",
        "category": "park",
        "tier": "tier1",
        "importance_score": 9,
        "city": "Chennai",
        "state": "Tamil Nadu",
        "verified": true,
        "location": {
            "lat": 13.0475,
            "lng": 80.2824
        },
        "geohash": "tf344z5z",
        "nearby_spots": {
            "kapaleeshwarar_temple": true
        }
    },
    "kapaleeshwarar_temple": {
        "name": "Kapaleeshwarar Temple",
        "category": "religious",
        "tier": "tier1",
        "importance_score": 9,
        "city": "Chennai",
        "state": "Tamil Nadu",
        "verified": true,
        "location": {
            "lat": 13.0333,
            "lng": 80.2694
        },
        "geohash": "tf344sdk",
        "nearby_spots": {
            "marina_beach": true
        }
    }
}